{"meta":{"code":200},"response":{"venues":[{"id":"4b6b6ad0f964a52066072ce3","name":"Sushi Gallery","contact":{},"location":{"address":"78 Clark St","crossStreet":"at Henry St.","lat":40.697673182111075,"lng":-73.99341344833374,"distance":613,"postalCode":"11201","cc":"US","city":"Brooklyn","state":"NY","country":"United States"},"categories":[{"id":"4bf58dd8d48988d1d2941735","name":"Sushi-Bar","pluralName":"Sushi-Bars","shortName":"Sushi","icon":{"prefix":"https:\/\/ss1.4sqi.net\/img\/categories_v2\/food\/sushi_","suffix":".png"},"primary":true}],"verified":false,"restricted":true,"stats":{"checkinsCount":317,"usersCount":200,"tipCount":6},"specials":{"count":0,"items":[]},"hereNow":{"count":0,"groups":[]},"referralId":"v-1382805185"},{"id":"52155e9d11d2c369404df14e","name":"Sushi Nakazawa","contact":{},"location":{"address":"23 Commerce St","lat":40.731673368956436,"lng":-74.00453787112845,"distance":3546,"postalCode":"10014","cc":"US","city":"New York","state":"NY","country":"United States"},"categories":[{"id":"4bf58dd8d48988d1d2941735","name":"Sushi-Bar","pluralName":"Sushi-Bars","shortName":"Sushi","icon":{"prefix":"https:\/\/ss1.4sqi.net\/img\/categories_v2\/food\/sushi_","suffix":".png"},"primary":true}],"verified":false,"restricted":true,"stats":{"checkinsCount":287,"usersCount":271,"tipCount":15},"specials":{"count":0,"items":[]},"hereNow":{"count":0,"groups":[]},"referralId":"v-1382805185"},{"id":"4d02c8508620224b97ef9e40","name":"Sushi","contact":{},"location":{"lat":40.62483046817215,"lng":-73.96267093554764,"distance":8941,"postalCode":"11228","cc":"US","city":"Brooklyn","state":"NY","country":"United States"},"categories":[{"id":"4bf58dd8d48988d142941735","name":"Asiatisches Restaurant","pluralName":"Asiatische Restaurants","shortName":"Asiatisch","icon":{"prefix":"https:\/\/ss1.4sqi.net\/img\/categories_v2\/food\/asian_","suffix":".png"},"primary":true}],"verified":false,"restricted":true,"stats":{"checkinsCount":13,"usersCount":12,"tipCount":0},"specials":{"count":0,"items":[]},"hereNow":{"count":0,"groups":[]},"referralId":"v-1382805185"},{"id":"51f08ee1498ea94cdb5686e2","name":"Sushi D","contact":{"phone":"7188580058","formattedPhone":"(718) 858-0058"},"location":{"address":"207 Dekalb Ave.","crossStreet":"Adelphi Street","lat":40.689644,"lng":-73.971364,"distance":2677,"postalCode":"11205","cc":"US","city":"Brooklyn","state":"NY","country":"United States"},"categories":[{"id":"4bf58dd8d48988d1d2941735","name":"Sushi-Bar","pluralName":"Sushi-Bars","shortName":"Sushi","icon":{"prefix":"https:\/\/ss1.4sqi.net\/img\/categories_v2\/food\/sushi_","suffix":".png"},"primary":true}],"verified":false,"restricted":true,"stats":{"checkinsCount":77,"usersCount":71,"tipCount":2},"specials":{"count":0,"items":[]},"hereNow":{"count":0,"groups":[]},"referralId":"v-1382805185"},{"id":"4a6f2eaef964a5208ad51fe3","name":"Sushi Park","contact":{"phone":"2125338448","formattedPhone":"(212) 533-8448"},"location":{"address":"121 2nd Ave","crossStreet":"btwn 7th St. & 8th St.","lat":40.728162904651136,"lng":-73.98801601305168,"distance":3294,"postalCode":"10003","cc":"US","city":"New York","state":"NY","country":"United States"},"categories":[{"id":"4bf58dd8d48988d1d2941735","name":"Sushi-Bar","pluralName":"Sushi-Bars","shortName":"Sushi","icon":{"prefix":"https:\/\/ss1.4sqi.net\/img\/categories_v2\/food\/sushi_","suffix":".png"},"primary":true}],"verified":false,"restricted":true,"stats":{"checkinsCount":8491,"usersCount":4361,"tipCount":72},"specials":{"count":0,"items":[]},"hereNow":{"count":0,"groups":[]},"referralId":"v-1382805185"},{"id":"51bb39d77dd2ab9f2ed9f601","name":"Sushi Dojo","contact":{},"location":{"address":"110 1st Ave","crossStreet":"E 7th St","lat":40.72672214768336,"lng":-73.98588180541992,"distance":3204,"postalCode":"10003","cc":"US","city":"New York","state":"NY","country":"United States"},"categories":[{"id":"4bf58dd8d48988d1d2941735","name":"Sushi-Bar","pluralName":"Sushi-Bars","shortName":"Sushi","icon":{"prefix":"https:\/\/ss1.4sqi.net\/img\/categories_v2\/food\/sushi_","suffix":".png"},"primary":true}],"verified":false,"restricted":true,"stats":{"checkinsCount":204,"usersCount":170,"tipCount":9},"menu":{"type":"Menu","label":"Menü","anchor":"Menü anzeigen","url":"https:\/\/foursquare.com\/v\/sushi-dojo\/51bb39d77dd2ab9f2ed9f601\/menu","mobileUrl":"https:\/\/foursquare.com\/v\/51bb39d77dd2ab9f2ed9f601\/device_menu"},"specials":{"count":0,"items":[]},"hereNow":{"count":0,"groups":[]},"referralId":"v-1382805185"},{"id":"4b49208ef964a520046726e3","name":"Sushi Mambo","contact":{"phone":"2126755885","formattedPhone":"(212) 675-5885"},"location":{"address":"255 Bleecker St","crossStreet":"at Cornelia St.","lat":40.73117364465566,"lng":-74.00288517558319,"distance":3478,"postalCode":"10014","cc":"US","city":"New York","state":"NY","country":"United States"},"categories":[{"id":"4bf58dd8d48988d1d2941735","name":"Sushi-Bar","pluralName":"Sushi-Bars","shortName":"Sushi","icon":{"prefix":"https:\/\/ss1.4sqi.net\/img\/categories_v2\/food\/sushi_","suffix":".png"},"primary":true}],"verified":true,"restricted":true,"stats":{"checkinsCount":3144,"usersCount":2052,"tipCount":39},"url":"http:\/\/sushimambo.com\u200e","menu":{"type":"Menu","label":"Menü","anchor":"Menü anzeigen","url":"https:\/\/foursquare.com\/v\/sushi-mambo\/4b49208ef964a520046726e3\/menu","mobileUrl":"https:\/\/foursquare.com\/v\/4b49208ef964a520046726e3\/device_menu"},"specials":{"count":0,"items":[]},"hereNow":{"count":0,"groups":[]},"referralId":"v-1382805185"},{"id":"4c917ff9ae45224bc7aae897","name":"sushi palace","contact":{},"location":{"address":"E 121 2nd Avebue","lat":40.72911381447428,"lng":-73.98729289817663,"distance":3413,"cc":"US","city":"New York","state":"NY","country":"United States"},"categories":[{"id":"4bf58dd8d48988d1d2941735","name":"Sushi-Bar","pluralName":"Sushi-Bars","shortName":"Sushi","icon":{"prefix":"https:\/\/ss1.4sqi.net\/img\/categories_v2\/food\/sushi_","suffix":".png"},"primary":true}],"verified":false,"restricted":true,"stats":{"checkinsCount":82,"usersCount":45,"tipCount":0},"specials":{"count":0,"items":[]},"hereNow":{"count":0,"groups":[]},"referralId":"v-1382805185"},{"id":"4b195ff4f964a5202adc23e3","name":"Sushi Yawa","contact":{},"location":{"address":"187 Church Street","lat":40.71595224743506,"lng":-74.00714887145934,"distance":1875,"cc":"US","city":"New York","state":"NY","country":"United States"},"categories":[{"id":"4bf58dd8d48988d1d2941735","name":"Sushi-Bar","pluralName":"Sushi-Bars","shortName":"Sushi","icon":{"prefix":"https:\/\/ss1.4sqi.net\/img\/categories_v2\/food\/sushi_","suffix":".png"},"primary":true}],"verified":false,"restricted":true,"stats":{"checkinsCount":357,"usersCount":200,"tipCount":5},"specials":{"count":0,"items":[]},"hereNow":{"count":0,"groups":[]},"referralId":"v-1382805185"},{"id":"4a47ae1ef964a520f1a91fe3","name":"Sushi Yu","contact":{"phone":"7188328688","formattedPhone":"(718) 832-8688"},"location":{"address":"214 Prospect Park W","crossStreet":"btw Windsor Pl & 16th Street","lat":40.660292,"lng":-73.980357,"distance":4721,"postalCode":"11215","cc":"US","city":"Brooklyn","state":"NY","country":"United States"},"categories":[{"id":"4bf58dd8d48988d1d2941735","name":"Sushi-Bar","pluralName":"Sushi-Bars","shortName":"Sushi","icon":{"prefix":"https:\/\/ss1.4sqi.net\/img\/categories_v2\/food\/sushi_","suffix":".png"},"primary":true}],"verified":false,"restricted":true,"stats":{"checkinsCount":623,"usersCount":292,"tipCount":5},"menu":{"type":"Menu","label":"Menü","anchor":"Menü anzeigen","url":"https:\/\/foursquare.com\/v\/sushi-yu\/4a47ae1ef964a520f1a91fe3\/menu","mobileUrl":"https:\/\/foursquare.com\/v\/4a47ae1ef964a520f1a91fe3\/device_menu"},"specials":{"count":0,"items":[]},"hereNow":{"count":0,"groups":[]},"referralId":"v-1382805185"},{"id":"4f34195fe4b071610d9dc6dc","name":"Sushi 21","contact":{},"location":{"address":"174 7th Ave","crossStreet":"20th Street","lat":40.74236948236539,"lng":-73.99681943113464,"distance":4724,"postalCode":"10011","cc":"US","city":"New York City","state":"NY","country":"United States"},"categories":[{"id":"4bf58dd8d48988d1d2941735","name":"Sushi-Bar","pluralName":"Sushi-Bars","shortName":"Sushi","icon":{"prefix":"https:\/\/ss1.4sqi.net\/img\/categories_v2\/food\/sushi_","suffix":".png"},"primary":true}],"verified":false,"restricted":true,"stats":{"checkinsCount":459,"usersCount":297,"tipCount":9},"menu":{"type":"Menu","label":"Menü","anchor":"Menü anzeigen","url":"https:\/\/foursquare.com\/v\/sushi-21\/4f34195fe4b071610d9dc6dc\/menu","mobileUrl":"https:\/\/foursquare.com\/v\/4f34195fe4b071610d9dc6dc\/device_menu"},"specials":{"count":0,"items":[]},"hereNow":{"count":0,"groups":[]},"referralId":"v-1382805185"},{"id":"4a68ee16f964a52047cb1fe3","name":"Sushi Lounge","contact":{"phone":"2125981188","formattedPhone":"(212) 598-1188"},"location":{"address":"132 Saint Marks Pl","crossStreet":"Avenue A","lat":40.726766,"lng":-73.983292,"distance":3296,"postalCode":"10009","cc":"US","city":"New York","state":"NY","country":"United States"},"categories":[{"id":"4bf58dd8d48988d1d2941735","name":"Sushi-Bar","pluralName":"Sushi-Bars","shortName":"Sushi","icon":{"prefix":"https:\/\/ss1.4sqi.net\/img\/categories_v2\/food\/sushi_","suffix":".png"},"primary":true}],"verified":false,"restricted":true,"stats":{"checkinsCount":4752,"usersCount":2771,"tipCount":48},"url":"http:\/\/www.sushiloungenyc.com","menu":{"type":"Menu","label":"Menü","anchor":"Menü anzeigen","url":"https:\/\/foursquare.com\/v\/sushi-lounge\/4a68ee16f964a52047cb1fe3\/menu","mobileUrl":"https:\/\/foursquare.com\/v\/4a68ee16f964a52047cb1fe3\/device_menu"},"specials":{"count":0,"items":[]},"hereNow":{"count":0,"groups":[]},"referralId":"v-1382805185"},{"id":"4aac2347f964a520705c20e3","name":"Sushi Yawa","contact":{"phone":"2122539888","formattedPhone":"(212) 253-9888","twitter":"sushiyawa"},"location":{"address":"25 W 8th St","crossStreet":"btwn Macdougal St. & 5th Ave.","lat":40.73285722490251,"lng":-73.99782370672871,"distance":3662,"postalCode":"10011","cc":"US","city":"New York","state":"NY","country":"United States"},"categories":[{"id":"4bf58dd8d48988d111941735","name":"Japanisches Restaurant","pluralName":"Japanische Restaurants","shortName":"Japanisch","icon":{"prefix":"https:\/\/ss1.4sqi.net\/img\/categories_v2\/food\/japanese_","suffix":".png"},"primary":true}],"verified":true,"restricted":true,"stats":{"checkinsCount":888,"usersCount":627,"tipCount":10},"url":"http:\/\/www.sushiyawa.com","reservations":{"url":"http:\/\/www.opentable.com\/single.aspx?rid=102601&ref=9601"},"menu":{"type":"Menu","label":"Menü","anchor":"Menü anzeigen","url":"https:\/\/foursquare.com\/v\/sushi-yawa\/4aac2347f964a520705c20e3\/menu","mobileUrl":"https:\/\/foursquare.com\/v\/4aac2347f964a520705c20e3\/device_menu"},"specials":{"count":0,"items":[]},"hereNow":{"count":0,"groups":[]},"venuePage":{"id":"47547247"},"storeId":"","referralId":"v-1382805185"},{"id":"4aad744bf964a520606020e3","name":"Sushi Azabu","contact":{"phone":"2122740428","formattedPhone":"(212) 274-0428"},"location":{"address":"428 Greenwich St","crossStreet":"btwn Vestry St & Laight St","lat":40.7223139219909,"lng":-74.00973114442213,"distance":2616,"postalCode":"10013","cc":"US","city":"New York","state":"NY","country":"United States"},"categories":[{"id":"4bf58dd8d48988d1d2941735","name":"Sushi-Bar","pluralName":"Sushi-Bars","shortName":"Sushi","icon":{"prefix":"https:\/\/ss1.4sqi.net\/img\/categories_v2\/food\/sushi_","suffix":".png"},"primary":true}],"verified":false,"restricted":true,"stats":{"checkinsCount":1061,"usersCount":865,"tipCount":42},"menu":{"type":"Menu","label":"Menü","anchor":"Menü anzeigen","url":"https:\/\/foursquare.com\/v\/sushi-azabu\/4aad744bf964a520606020e3\/menu","mobileUrl":"https:\/\/foursquare.com\/v\/4aad744bf964a520606020e3\/device_menu"},"specials":{"count":0,"items":[]},"hereNow":{"count":0,"groups":[]},"referralId":"v-1382805185"},{"id":"4ea75442f7903beac0782454","name":"Sushi Yasaka","contact":{"phone":"2124968466","formattedPhone":"(212) 496-8466"},"location":{"address":"251 W 72nd St","crossStreet":"btwn Broadway & W End Ave","lat":40.77937526571111,"lng":-73.98347641344374,"distance":8945,"postalCode":"10024","cc":"US","city":"New York","state":"NY","country":"United States"},"categories":[{"id":"4bf58dd8d48988d1d2941735","name":"Sushi-Bar","pluralName":"Sushi-Bars","shortName":"Sushi","icon":{"prefix":"https:\/\/ss1.4sqi.net\/img\/categories_v2\/food\/sushi_","suffix":".png"},"primary":true}],"verified":false,"restricted":true,"stats":{"checkinsCount":2590,"usersCount":1582,"tipCount":39},"reservations":{"url":"http:\/\/www.opentable.com\/single.aspx?rid=76567&ref=9601"},"menu":{"type":"Menu","label":"Menü","anchor":"Menü anzeigen","url":"https:\/\/foursquare.com\/v\/sushi-yasaka\/4ea75442f7903beac0782454\/menu","mobileUrl":"https:\/\/foursquare.com\/v\/4ea75442f7903beac0782454\/device_menu"},"specials":{"count":0,"items":[]},"hereNow":{"count":0,"groups":[]},"referralId":"v-1382805185"},{"id":"4db2036ccda14b702a534350","name":"BK Sushi","contact":{},"location":{"lat":40.687909,"lng":-73.999806,"distance":1346,"postalCode":"11201","cc":"US","city":"Brooklyn","state":"NY","country":"United States"},"categories":[{"id":"4bf58dd8d48988d111941735","name":"Japanisches Restaurant","pluralName":"Japanische Restaurants","shortName":"Japanisch","icon":{"prefix":"https:\/\/ss1.4sqi.net\/img\/categories_v2\/food\/japanese_","suffix":".png"},"primary":true}],"verified":false,"restricted":true,"stats":{"checkinsCount":2,"usersCount":2,"tipCount":0},"specials":{"count":0,"items":[]},"hereNow":{"count":0,"groups":[]},"referralId":"v-1382805185"},{"id":"3fd66200f964a5200eea1ee3","name":"Tomoe Sushi","contact":{"phone":"2127779346","formattedPhone":"(212) 777-9346"},"location":{"address":"172 Thompson St","crossStreet":"btw Bleecker & Houston","lat":40.727770751245714,"lng":-74.00033724199605,"distance":3091,"postalCode":"10012","cc":"US","city":"New York","state":"NY","country":"United States"},"categories":[{"id":"4bf58dd8d48988d1d2941735","name":"Sushi-Bar","pluralName":"Sushi-Bars","shortName":"Sushi","icon":{"prefix":"https:\/\/ss1.4sqi.net\/img\/categories_v2\/food\/sushi_","suffix":".png"},"primary":true}],"verified":false,"restricted":true,"stats":{"checkinsCount":4512,"usersCount":2844,"tipCount":76},"url":"http:\/\/www.tomoesushi.com","menu":{"type":"Menu","label":"Menü","anchor":"Menü anzeigen","url":"https:\/\/foursquare.com\/v\/tomoe-sushi\/3fd66200f964a5200eea1ee3\/menu","mobileUrl":"https:\/\/foursquare.com\/v\/3fd66200f964a5200eea1ee3\/device_menu"},"specials":{"count":0,"items":[]},"hereNow":{"count":0,"groups":[]},"referralId":"v-1382805185"},{"id":"4f9aab6c003929361b5de462","name":"Beyond Sushi","contact":{"phone":"6468612889","formattedPhone":"(646) 861-2889","twitter":"beyondsushi"},"location":{"address":"229 E 14th St","crossStreet":"Btwn 2nd and 3rd Avenue","lat":40.73281984465465,"lng":-73.98608565330504,"distance":3837,"postalCode":"10003","cc":"US","city":"New York","state":"NY","country":"United States"},"categories":[{"id":"4bf58dd8d48988d1d2941735","name":"Sushi-Bar","pluralName":"Sushi-Bars","shortName":"Sushi","icon":{"prefix":"https:\/\/ss1.4sqi.net\/img\/categories_v2\/food\/sushi_","suffix":".png"},"primary":true}],"verified":true,"restricted":true,"stats":{"checkinsCount":2008,"usersCount":1369,"tipCount":46},"url":"http:\/\/www.beyondsushinyc.com","menu":{"type":"Menu","label":"Menü","anchor":"Menü anzeigen","url":"https:\/\/foursquare.com\/v\/beyond-sushi\/4f9aab6c003929361b5de462\/menu","mobileUrl":"https:\/\/foursquare.com\/v\/4f9aab6c003929361b5de462\/device_menu"},"specials":{"count":0,"items":[]},"hereNow":{"count":0,"groups":[]},"venuePage":{"id":"33872566"},"storeId":"","referralId":"v-1382805185"},{"id":"4e4e4c36bd4101d0d7a71fab","name":"Kuki Sushi","contact":{"phone":"2126084254","formattedPhone":"(212) 608-4254"},"location":{"address":"165 Church St","lat":40.71506057330116,"lng":-74.00791781860957,"distance":1804,"postalCode":"10007","cc":"US","city":"New York","state":"NY","country":"United States"},"categories":[{"id":"4bf58dd8d48988d1d2941735","name":"Sushi-Bar","pluralName":"Sushi-Bars","shortName":"Sushi","icon":{"prefix":"https:\/\/ss1.4sqi.net\/img\/categories_v2\/food\/sushi_","suffix":".png"},"primary":true}],"verified":false,"restricted":true,"stats":{"checkinsCount":23,"usersCount":19,"tipCount":0},"specials":{"count":0,"items":[]},"hereNow":{"count":0,"groups":[]},"referralId":"v-1382805185"},{"id":"4cc4ab91bde8f04d93e6ac4b","name":"Genji Sushi","contact":{"phone":"2508373978","formattedPhone":"(250) 837-3978"},"location":{"address":"250 Vesey St","lat":40.716068,"lng":-74.011326,"distance":2027,"postalCode":"10007","cc":"US","city":"New York","state":"NY","country":"United States"},"categories":[{"id":"4bf58dd8d48988d111941735","name":"Japanisches Restaurant","pluralName":"Japanische Restaurants","shortName":"Japanisch","icon":{"prefix":"https:\/\/ss1.4sqi.net\/img\/categories_v2\/food\/japanese_","suffix":".png"},"primary":true}],"verified":false,"restricted":true,"stats":{"checkinsCount":9,"usersCount":8,"tipCount":0},"specials":{"count":0,"items":[]},"hereNow":{"count":0,"groups":[]},"referralId":"v-1382805185"},{"id":"50e71464e4b0ecb01ddc121f","name":"Akimoto Sushi","contact":{},"location":{"address":"187 Church Street","crossStreet":"Duane","lat":40.7157887614957,"lng":-74.00729233198314,"distance":1862,"postalCode":"10013","cc":"US","city":"New York","state":"NY","country":"United States"},"categories":[{"id":"4bf58dd8d48988d1d2941735","name":"Sushi-Bar","pluralName":"Sushi-Bars","shortName":"Sushi","icon":{"prefix":"https:\/\/ss1.4sqi.net\/img\/categories_v2\/food\/sushi_","suffix":".png"},"primary":true}],"verified":false,"restricted":true,"stats":{"checkinsCount":138,"usersCount":93,"tipCount":1},"menu":{"type":"Menu","label":"Menü","anchor":"Menü anzeigen","url":"https:\/\/foursquare.com\/v\/akimoto-sushi\/50e71464e4b0ecb01ddc121f\/menu","mobileUrl":"https:\/\/foursquare.com\/v\/50e71464e4b0ecb01ddc121f\/device_menu"},"specials":{"count":0,"items":[]},"hereNow":{"count":0,"groups":[]},"referralId":"v-1382805185"},{"id":"45795395f964a520d23e1fe3","name":"Taro Sushi","contact":{"phone":"7183985240","formattedPhone":"(718) 398-5240","twitter":"sushitaro_dc"},"location":{"address":"244 Flatbush Ave","crossStreet":"at St. Mark's Pl","lat":40.67969421204972,"lng":-73.97425174713135,"distance":3135,"postalCode":"11217","cc":"US","city":"Brooklyn","state":"NY","country":"United States"},"categories":[{"id":"4bf58dd8d48988d1d2941735","name":"Sushi-Bar","pluralName":"Sushi-Bars","shortName":"Sushi","icon":{"prefix":"https:\/\/ss1.4sqi.net\/img\/categories_v2\/food\/sushi_","suffix":".png"},"primary":true}],"verified":false,"restricted":true,"stats":{"checkinsCount":3504,"usersCount":1753,"tipCount":53},"url":"http:\/\/www.tarosushibrooklyn.com","menu":{"type":"Menu","label":"Menü","anchor":"Menü anzeigen","url":"https:\/\/foursquare.com\/v\/taro-sushi\/45795395f964a520d23e1fe3\/menu","mobileUrl":"https:\/\/foursquare.com\/v\/45795395f964a520d23e1fe3\/device_menu"},"specials":{"count":0,"items":[]},"hereNow":{"count":0,"groups":[]},"referralId":"v-1382805185"},{"id":"51bca79c498ea7d16cf8b5d7","name":"Aji Sushi","contact":{"phone":"7186222889","formattedPhone":"(718) 622-2889"},"location":{"address":"201 5th Avenue","crossStreet":"Union St","lat":40.6765495849573,"lng":-73.98029690811791,"distance":3095,"postalCode":"11215","cc":"US","city":"Brooklyn","state":"NY","country":"United States"},"categories":[{"id":"4bf58dd8d48988d1d2941735","name":"Sushi-Bar","pluralName":"Sushi-Bars","shortName":"Sushi","icon":{"prefix":"https:\/\/ss1.4sqi.net\/img\/categories_v2\/food\/sushi_","suffix":".png"},"primary":true}],"verified":false,"restricted":true,"stats":{"checkinsCount":69,"usersCount":44,"tipCount":6},"specials":{"count":0,"items":[]},"hereNow":{"count":0,"groups":[]},"referralId":"v-1382805185"},{"id":"4ab666e8f964a520e77620e3","name":"Koto Sushi","contact":{"phone":"7182303881","formattedPhone":"(718) 230-3881"},"location":{"address":"67 6th Ave","lat":40.68065638588907,"lng":-73.97476421392605,"distance":3028,"postalCode":"11217","cc":"US","city":"Brooklyn","state":"NY","country":"United States"},"categories":[{"id":"4bf58dd8d48988d1d2941735","name":"Sushi-Bar","pluralName":"Sushi-Bars","shortName":"Sushi","icon":{"prefix":"https:\/\/ss1.4sqi.net\/img\/categories_v2\/food\/sushi_","suffix":".png"},"primary":true}],"verified":false,"restricted":true,"stats":{"checkinsCount":362,"usersCount":228,"tipCount":4},"specials":{"count":0,"items":[]},"hereNow":{"count":0,"groups":[]},"referralId":"v-1382805185"},{"id":"49e63b62f964a52027641fe3","name":"Ki Sushi","contact":{"phone":"7189350575","formattedPhone":"(718) 935-0575"},"location":{"address":"122 Smith St","crossStreet":"btw Dean and Pacific","lat":40.687583,"lng":-73.989895,"distance":1624,"postalCode":"11201","cc":"US","city":"Brooklyn","state":"NY","country":"United States"},"categories":[{"id":"4bf58dd8d48988d1d2941735","name":"Sushi-Bar","pluralName":"Sushi-Bars","shortName":"Sushi","icon":{"prefix":"https:\/\/ss1.4sqi.net\/img\/categories_v2\/food\/sushi_","suffix":".png"},"primary":true}],"verified":false,"restricted":true,"stats":{"checkinsCount":3249,"usersCount":1755,"tipCount":53},"url":"http:\/\/www.ki-sushi.com","menu":{"type":"Menu","label":"Menü","anchor":"Menü anzeigen","url":"https:\/\/foursquare.com\/v\/ki-sushi\/49e63b62f964a52027641fe3\/menu","mobileUrl":"https:\/\/foursquare.com\/v\/49e63b62f964a52027641fe3\/device_menu"},"specials":{"count":0,"items":[]},"hereNow":{"count":0,"groups":[]},"referralId":"v-1382805185"},{"id":"44073932f964a5204a301fe3","name":"Sushi Damo","contact":{"phone":"2127078609","formattedPhone":"(212) 707-8609"},"location":{"address":"330 W 58th St","crossStreet":"8th & 9th Ave.","lat":40.76783518772944,"lng":-73.9834305003838,"distance":7679,"postalCode":"10019","cc":"US","city":"New York","state":"NY","country":"United States"},"categories":[{"id":"4bf58dd8d48988d1d2941735","name":"Sushi-Bar","pluralName":"Sushi-Bars","shortName":"Sushi","icon":{"prefix":"https:\/\/ss1.4sqi.net\/img\/categories_v2\/food\/sushi_","suffix":".png"},"primary":true}],"verified":false,"restricted":true,"stats":{"checkinsCount":4185,"usersCount":2420,"tipCount":50},"url":"http:\/\/www.sushidamo.com","reservations":{"url":"http:\/\/www.opentable.com\/single.aspx?rid=34939&ref=9601"},"menu":{"type":"Menu","label":"Menü","anchor":"Menü anzeigen","url":"https:\/\/foursquare.com\/v\/sushi-damo\/44073932f964a5204a301fe3\/menu","mobileUrl":"https:\/\/foursquare.com\/v\/44073932f964a5204a301fe3\/device_menu"},"specials":{"count":0,"items":[]},"hereNow":{"count":0,"groups":[]},"referralId":"v-1382805185"},{"id":"4bcfba6477b29c74bfbf8982","name":"Sushi Meshuna","contact":{"phone":"7184848085","formattedPhone":"(718) 484-8085"},"location":{"address":"5115 13th Ave","lat":40.63375982164356,"lng":-73.99386969982001,"distance":7391,"postalCode":"11219","cc":"US","city":"Brooklyn","state":"NY","country":"United States"},"categories":[{"id":"4bf58dd8d48988d1d2941735","name":"Sushi-Bar","pluralName":"Sushi-Bars","shortName":"Sushi","icon":{"prefix":"https:\/\/ss1.4sqi.net\/img\/categories_v2\/food\/sushi_","suffix":".png"},"primary":true}],"verified":false,"restricted":true,"stats":{"checkinsCount":54,"usersCount":36,"tipCount":0},"menu":{"type":"Menu","label":"Menü","anchor":"Menü anzeigen","url":"https:\/\/foursquare.com\/v\/sushi-meshuna\/4bcfba6477b29c74bfbf8982\/menu","mobileUrl":"https:\/\/foursquare.com\/v\/4bcfba6477b29c74bfbf8982\/device_menu"},"specials":{"count":0,"items":[]},"hereNow":{"count":0,"groups":[]},"referralId":"v-1382805185"},{"id":"5236289811d21573d21468a4","name":"Milosun Sushi","contact":{},"location":{"lat":40.728108,"lng":-73.984839,"distance":3380,"cc":"US","city":"New York","state":"NY","country":"United States"},"categories":[{"id":"4bf58dd8d48988d1d2941735","name":"Sushi-Bar","pluralName":"Sushi-Bars","shortName":"Sushi","icon":{"prefix":"https:\/\/ss1.4sqi.net\/img\/categories_v2\/food\/sushi_","suffix":".png"},"primary":true}],"verified":false,"restricted":true,"stats":{"checkinsCount":15,"usersCount":15,"tipCount":0},"specials":{"count":0,"items":[]},"hereNow":{"count":0,"groups":[]},"referralId":"v-1382805185"},{"id":"4aeb3c90f964a520f1bf21e3","name":"l.e.s. sushi","contact":{"phone":"2129821907","formattedPhone":"(212) 982-1907"},"location":{"address":"515 Grand St","crossStreet":"E Broadway","lat":40.714583,"lng":-73.981927,"distance":2227,"postalCode":"10002","cc":"US","city":"New York","state":"NY","country":"United States"},"categories":[{"id":"4bf58dd8d48988d1d2941735","name":"Sushi-Bar","pluralName":"Sushi-Bars","shortName":"Sushi","icon":{"prefix":"https:\/\/ss1.4sqi.net\/img\/categories_v2\/food\/sushi_","suffix":".png"},"primary":true}],"verified":false,"restricted":true,"stats":{"checkinsCount":194,"usersCount":75,"tipCount":6},"url":"http:\/\/www.lessushi.com","menu":{"type":"Menu","label":"Menü","anchor":"Menü anzeigen","url":"https:\/\/foursquare.com\/v\/les-sushi\/4aeb3c90f964a520f1bf21e3\/menu","mobileUrl":"https:\/\/foursquare.com\/v\/4aeb3c90f964a520f1bf21e3\/device_menu"},"specials":{"count":0,"items":[]},"hereNow":{"count":0,"groups":[]},"referralId":"v-1382805185"},{"id":"516603cde4b0031934643275","name":"Amber Sushi","contact":{},"location":{"lat":40.733051,"lng":-74.006796,"distance":3723,"cc":"US","city":"New York","state":"NY","country":"United States"},"categories":[{"id":"4bf58dd8d48988d111941735","name":"Japanisches Restaurant","pluralName":"Japanische Restaurants","shortName":"Japanisch","icon":{"prefix":"https:\/\/ss1.4sqi.net\/img\/categories_v2\/food\/japanese_","suffix":".png"},"primary":true}],"verified":false,"restricted":true,"stats":{"checkinsCount":127,"usersCount":115,"tipCount":2},"specials":{"count":0,"items":[]},"hereNow":{"count":0,"groups":[]},"referralId":"v-1382805185"}]}}